{
  "metadata": {
    "generated_at": "2025-12-01T18:09:34.902944",
    "description": "Index of Norwegian electrical grid capacity data with municipality info",
    "total_files": 29,
    "total_features": 734
  },
  "grid_operators": {
    "arva": {
      "file": "arva.json",
      "feature_count": 56,
      "publisher": "ARVA",
      "locations": [
        {
          "name": "Bardu",
          "coordinates": [
            18.319949,
            68.86344932
          ],
          "available_consumption": 1,
          "available_production": -20,
          "reserved_consumption": 0,
          "kommune": "Bardu",
          "fylke": "Troms"
        },
        {
          "name": "Fossmoen (Bardusfoss kraftverk)",
          "coordinates": [
            18.589685,
            69.04377654
          ],
          "available_consumption": 0,
          "available_production": -70,
          "reserved_consumption": 2,
          "kommune": "Målselv",
          "fylke": "Troms"
        },
        {
          "name": "Charlottenlund",
          "coordinates": [
            18.950619,
            69.66392483
          ],
          "available_consumption": 0,
          "available_production": -70,
          "reserved_consumption": 0,
          "kommune": "Tromsø",
          "fylke": "Troms"
        },
        {
          "name": "Dividalen",
          "coordinates": [
            19.57006,
            68.87541416
          ],
          "available_consumption": 4,
          "available_production": -5,
          "reserved_consumption": 0,
          "kommune": "Målselv",
          "fylke": "Troms"
        },
        {
          "name": "Finnfjordbotn",
          "coordinates": [
            18.083634,
            69.22140123
          ],
          "available_consumption": 0,
          "available_production": -25,
          "reserved_consumption": 141,
          "kommune": "Senja",
          "fylke": "Troms"
        },
        {
          "name": "Gimle",
          "coordinates": [
            18.978871,
            69.68745057
          ],
          "available_consumption": 0,
          "available_production": -60,
          "reserved_consumption": 0,
          "kommune": "Tromsø",
          "fylke": "Troms"
        },
        {
          "name": "Guolas",
          "coordinates": [
            20.918388,
            69.46045383
          ],
          "available_consumption": 2,
          "available_production": -10,
          "reserved_consumption": 0,
          "kommune": "Gáivuotna",
          "fylke": "Troms"
        },
        {
          "name": "Hungeren",
          "coordinates": [
            18.973365,
            69.63952679
          ],
          "available_consumption": 0,
          "available_production": -80,
          "reserved_consumption": 30,
          "kommune": "Tromsø",
          "fylke": "Troms"
        },
        {
          "name": "Kroken",
          "coordinates": [
            19.064735,
            69.6829072
          ],
          "available_consumption": 0,
          "available_production": -40,
          "reserved_consumption": 0,
          "kommune": "Tromsø",
          "fylke": "Troms"
        },
        {
          "name": "Kvaløya",
          "coordinates": [
            18.881974,
            69.69822267
          ],
          "available_consumption": 0,
          "available_production": -40,
          "reserved_consumption": 0,
          "kommune": "Tromsø",
          "fylke": "Troms"
        },
        {
          "name": "Lyngen",
          "coordinates": [
            20.270979,
            69.58929882
          ],
          "available_consumption": 16,
          "available_production": -25,
          "reserved_consumption": 0,
          "kommune": "Lyngen",
          "fylke": "Troms"
        },
        {
          "name": "Meistervik",
          "coordinates": [
            18.885175,
            69.33701151
          ],
          "available_consumption": 0,
          "available_production": -14,
          "reserved_consumption": 0,
          "kommune": "Balsfjord",
          "fylke": "Troms"
        },
        {
          "name": "Nordkjosbotn",
          "coordinates": [
            19.547486,
            69.21183778
          ],
          "available_consumption": 0,
          "available_production": -17,
          "reserved_consumption": 0,
          "kommune": "Balsfjord",
          "fylke": "Troms"
        },
        {
          "name": "Olsborg",
          "coordinates": [
            18.57906,
            69.17479922
          ],
          "available_consumption": 6,
          "available_production": -20,
          "reserved_consumption": 3,
          "kommune": "Målselv",
          "fylke": "Troms"
        },
        {
          "name": "Ringvassøy",
          "coordinates": [
            19.466581,
            69.94461792
          ],
          "available_consumption": 0,
          "available_production": -20,
          "reserved_consumption": 0,
          "kommune": "Karlsøy",
          "fylke": "Troms"
        },
        {
          "name": "Salangen",
          "coordinates": [
            17.866381,
            68.86612041
          ],
          "available_consumption": 6,
          "available_production": -21,
          "reserved_consumption": 0,
          "kommune": "Salangen",
          "fylke": "Troms"
        },
        {
          "name": "Sandvika",
          "coordinates": [
            18.993626,
            69.54400943
          ],
          "available_consumption": 0,
          "available_production": -20,
          "reserved_consumption": 0,
          "kommune": "Tromsø",
          "fylke": "Troms"
        },
        {
          "name": "Sentrum",
          "coordinates": [
            18.95335,
            69.65262
          ],
          "available_consumption": 0,
          "available_production": -50,
          "reserved_consumption": 0,
          "kommune": "Tromsø",
          "fylke": "Troms"
        },
        {
          "name": "Silsand",
          "coordinates": [
            17.950098,
            69.2495911
          ],
          "available_consumption": 0,
          "available_production": -120,
          "reserved_consumption": 0,
          "kommune": "Senja",
          "fylke": "Troms"
        },
        {
          "name": "Skibotn",
          "coordinates": [
            20.358775,
            69.31517951
          ],
          "available_consumption": 13,
          "available_production": -20,
          "reserved_consumption": 0,
          "kommune": "Storfjord",
          "fylke": "Troms"
        },
        {
          "name": "Stonglandseidet",
          "coordinates": [
            17.173579,
            69.08704637
          ],
          "available_consumption": 0,
          "available_production": -12,
          "reserved_consumption": 0,
          "kommune": "Senja",
          "fylke": "Troms"
        },
        {
          "name": "Storsteinnes",
          "coordinates": [
            19.243323,
            69.21012515
          ],
          "available_consumption": 0,
          "available_production": -30,
          "reserved_consumption": 0,
          "kommune": "Balsfjord",
          "fylke": "Troms"
        },
        {
          "name": "Strandveien",
          "coordinates": [
            18.94749,
            69.64485
          ],
          "available_consumption": 0,
          "available_production": -85,
          "reserved_consumption": 10,
          "kommune": "Tromsø",
          "fylke": "Troms"
        },
        {
          "name": "Straumsnes",
          "coordinates": [
            17.320771,
            69.404487
          ],
          "available_consumption": 0,
          "available_production": -17,
          "reserved_consumption": 0,
          "kommune": "Senja",
          "fylke": "Troms"
        },
        {
          "name": "Svanelvmo",
          "coordinates": [
            17.596009,
            69.258441
          ],
          "available_consumption": 0,
          "available_production": -7,
          "reserved_consumption": 0,
          "kommune": "Senja",
          "fylke": "Troms"
        },
        {
          "name": "Sørreisa",
          "coordinates": [
            18.169994,
            69.158632
          ],
          "available_consumption": 0,
          "available_production": -15,
          "reserved_consumption": 0,
          "kommune": "Sørreisa",
          "fylke": "Troms"
        },
        {
          "name": "Ullsfjord",
          "coordinates": [
            19.821381,
            69.602999
          ],
          "available_consumption": 16,
          "available_production": -25,
          "reserved_consumption": 0,
          "kommune": "Tromsø",
          "fylke": "Troms"
        },
        {
          "name": "Øverbygd",
          "coordinates": [
            19.287396,
            69.03544
          ],
          "available_consumption": 0,
          "available_production": -10,
          "reserved_consumption": 0,
          "kommune": "Målselv",
          "fylke": "Troms"
        },
        {
          "name": "Fakken",
          "coordinates": [
            20.049959,
            70.095527
          ],
          "available_consumption": 0,
          "available_production": -60,
          "reserved_consumption": 0,
          "kommune": "Karlsøy",
          "fylke": "Troms"
        },
        {
          "name": "Brensholmen",
          "coordinates": [
            18.072042,
            69.568904
          ],
          "available_consumption": 0,
          "available_production": -20,
          "reserved_consumption": 0,
          "kommune": "Tromsø",
          "fylke": "Troms"
        },
        {
          "name": "Varden",
          "coordinates": [
            19.002362,
            69.699659
          ],
          "available_consumption": 0,
          "available_production": -140,
          "reserved_consumption": 0,
          "kommune": "Tromsø",
          "fylke": "Troms"
        },
        {
          "name": "Finnfjord AS",
          "coordinates": [
            18.083634,
            69.22140123
          ],
          "available_consumption": 0,
          "available_production": -120,
          "reserved_consumption": 60,
          "kommune": "Senja",
          "fylke": "Troms"
        },
        {
          "name": "Beiarn",
          "coordinates": [
            14.794278,
            66.934644
          ],
          "available_consumption": 0,
          "available_production": -9,
          "reserved_consumption": 0,
          "kommune": "Beiarn",
          "fylke": "Nordland"
        },
        {
          "name": "Bodin",
          "coordinates": [
            14.424213,
            67.284044
          ],
          "available_consumption": 0,
          "available_production": -47,
          "reserved_consumption": 0,
          "kommune": "Bodø",
          "fylke": "Nordland"
        },
        {
          "name": "Enga",
          "coordinates": [
            13.532725,
            66.787202
          ],
          "available_consumption": 0,
          "available_production": -10,
          "reserved_consumption": 0,
          "kommune": "Meløy",
          "fylke": "Nordland"
        },
        {
          "name": "Fauske",
          "coordinates": [
            15.419161,
            67.271176
          ],
          "available_consumption": 0,
          "available_production": -60,
          "reserved_consumption": 13,
          "kommune": "Fauske",
          "fylke": "Nordland"
        },
        {
          "name": "Gillesvåg",
          "coordinates": [
            14.684157,
            67.205108
          ],
          "available_consumption": 0,
          "available_production": -3,
          "reserved_consumption": 0,
          "kommune": "Bodø",
          "fylke": "Nordland"
        },
        {
          "name": "Govddesåga",
          "coordinates": [
            14.38745,
            66.924863
          ],
          "available_consumption": 5,
          "available_production": -3,
          "reserved_consumption": 0,
          "kommune": "Beiarn",
          "fylke": "Nordland"
        },
        {
          "name": "Halsa",
          "coordinates": [
            13.598618,
            66.748993
          ],
          "available_consumption": 9,
          "available_production": -30,
          "reserved_consumption": 6,
          "kommune": "Meløy",
          "fylke": "Nordland"
        },
        {
          "name": "Havna",
          "coordinates": [
            14.408499,
            67.294224
          ],
          "available_consumption": 0,
          "available_production": -60,
          "reserved_consumption": 0,
          "kommune": "Bodø",
          "fylke": "Nordland"
        },
        {
          "name": "Hopen",
          "coordinates": [
            14.738486,
            67.319638
          ],
          "available_consumption": 0,
          "available_production": -5,
          "reserved_consumption": 0,
          "kommune": "Bodø",
          "fylke": "Nordland"
        },
        {
          "name": "Kjelling",
          "coordinates": [
            14.32848,
            67.0672
          ],
          "available_consumption": 0,
          "available_production": -4,
          "reserved_consumption": 0,
          "kommune": "Gildeskål",
          "fylke": "Nordland"
        },
        {
          "name": "Messiosen",
          "coordinates": [
            14.557037,
            67.294183
          ],
          "available_consumption": 0,
          "available_production": -60,
          "reserved_consumption": 1,
          "kommune": "Bodø",
          "fylke": "Nordland"
        },
        {
          "name": "Oldereid",
          "coordinates": [
            14.935887,
            67.132236
          ],
          "available_consumption": 0,
          "available_production": -5,
          "reserved_consumption": 0,
          "kommune": "Bodø",
          "fylke": "Nordland"
        },
        {
          "name": "Rensåsen",
          "coordinates": [
            14.39978,
            67.28242
          ],
          "available_consumption": 0,
          "available_production": -50,
          "reserved_consumption": 0,
          "kommune": "Bodø",
          "fylke": "Nordland"
        },
        {
          "name": "Reppa",
          "coordinates": [
            13.560984,
            66.645975
          ],
          "available_consumption": 0,
          "available_production": -4,
          "reserved_consumption": 15,
          "kommune": "Rødøy",
          "fylke": "Nordland"
        },
        {
          "name": "Rognan",
          "coordinates": [
            15.387475,
            67.089644
          ],
          "available_consumption": 0,
          "available_production": -27,
          "reserved_consumption": 0,
          "kommune": "Saltdal",
          "fylke": "Nordland"
        },
        {
          "name": "Sandnes",
          "coordinates": [
            16.084486,
            67.130086
          ],
          "available_consumption": 0,
          "available_production": -15,
          "reserved_consumption": 0,
          "kommune": "Fauske",
          "fylke": "Nordland"
        },
        {
          "name": "Sulitjelma",
          "coordinates": [
            16.07746,
            67.119743
          ],
          "available_consumption": 0,
          "available_production": -14,
          "reserved_consumption": 12,
          "kommune": "Fauske",
          "fylke": "Nordland"
        },
        {
          "name": "Sundsfjord",
          "coordinates": [
            14.150513,
            66.971373
          ],
          "available_consumption": 47,
          "available_production": -25,
          "reserved_consumption": 0,
          "kommune": "Gildeskål",
          "fylke": "Nordland"
        },
        {
          "name": "Tjønndalen",
          "coordinates": [
            14.460894,
            67.283818
          ],
          "available_consumption": 0,
          "available_production": -59,
          "reserved_consumption": 0,
          "kommune": "Bodø",
          "fylke": "Nordland"
        },
        {
          "name": "Valljord",
          "coordinates": [
            15.554176,
            67.340485
          ],
          "available_consumption": 0,
          "available_production": -12,
          "reserved_consumption": 16,
          "kommune": "Fauske",
          "fylke": "Nordland"
        },
        {
          "name": "Vestbyen",
          "coordinates": [
            14.37948,
            67.27417
          ],
          "available_consumption": 0,
          "available_production": -40,
          "reserved_consumption": 40,
          "kommune": "Bodø",
          "fylke": "Nordland"
        },
        {
          "name": "Øresvik",
          "coordinates": [
            13.205301,
            66.45455
          ],
          "available_consumption": 6,
          "available_production": -40,
          "reserved_consumption": 17,
          "kommune": "Rødøy",
          "fylke": "Nordland"
        },
        {
          "name": "Glomfjord - Meløy Nett",
          "coordinates": [
            13.934524,
            66.817505
          ],
          "available_consumption": 11,
          "available_production": -25,
          "reserved_consumption": 0,
          "kommune": "Meløy",
          "fylke": "Nordland"
        },
        {
          "name": "Glomfjord - Glomfjord Industripark",
          "coordinates": [
            13.934524,
            66.817505
          ],
          "available_consumption": 16,
          "available_production": -100,
          "reserved_consumption": 20,
          "kommune": "Meløy",
          "fylke": "Nordland"
        }
      ]
    },
    "barentsnett": {
      "file": "barentsnett.json",
      "feature_count": 14,
      "publisher": "Barentsnett",
      "locations": [
        {
          "name": "Bjørnevatn",
          "coordinates": [
            30.005443,
            69.665596
          ],
          "available_consumption": 4,
          "available_production": -24,
          "reserved_consumption": 4,
          "kommune": "Sør-Varanger",
          "fylke": "Finnmark"
        },
        {
          "name": "Båtsfjord Transformatorstasjon",
          "coordinates": [
            29.713211,
            70.639784
          ],
          "available_consumption": 14,
          "available_production": 0,
          "reserved_consumption": 2,
          "kommune": "Båtsfjord",
          "fylke": "Finnmark"
        },
        {
          "name": "Gandvik",
          "coordinates": [
            29.121376,
            70.008611
          ],
          "available_consumption": 2,
          "available_production": -6,
          "reserved_consumption": 0,
          "kommune": "Unjárga",
          "fylke": "Finnmark"
        },
        {
          "name": "Kirkenes",
          "coordinates": [
            30.033445,
            69.722792
          ],
          "available_consumption": 22,
          "available_production": -105,
          "reserved_consumption": 26,
          "kommune": "Sør-Varanger",
          "fylke": "Finnmark"
        },
        {
          "name": "Kobbkroken",
          "coordinates": [
            29.285897367112028,
            70.71211510134489
          ],
          "available_consumption": 6,
          "available_production": 0,
          "reserved_consumption": 0,
          "kommune": "Berlevåg",
          "fylke": "Finnmark"
        },
        {
          "name": "Leirpollen",
          "coordinates": [
            28.522208,
            70.426678
          ],
          "available_consumption": 2,
          "available_production": 0,
          "reserved_consumption": 0,
          "kommune": "Deatnu",
          "fylke": "Finnmark"
        },
        {
          "name": "Melkefoss",
          "coordinates": [
            29.78702,
            69.399451
          ],
          "available_consumption": 5,
          "available_production": -5,
          "reserved_consumption": 0,
          "kommune": "Sør-Varanger",
          "fylke": "Finnmark"
        },
        {
          "name": "Neiden",
          "coordinates": [
            29.348763,
            69.703356
          ],
          "available_consumption": 3,
          "available_production": -10,
          "reserved_consumption": 0,
          "kommune": "Sør-Varanger",
          "fylke": "Finnmark"
        },
        {
          "name": "Smelror Transformatorstasjon",
          "coordinates": [
            31.013653,
            70.385109
          ],
          "available_consumption": 14,
          "available_production": 0,
          "reserved_consumption": 0,
          "kommune": "Vardø",
          "fylke": "Finnmark"
        },
        {
          "name": "Storvarden/Raggovidda",
          "coordinates": [
            29.085242,
            70.763064
          ],
          "available_consumption": 1,
          "available_production": 0,
          "reserved_consumption": 0,
          "kommune": "Berlevåg",
          "fylke": "Finnmark"
        },
        {
          "name": "Tana Bru",
          "coordinates": [
            28.187957,
            70.194317
          ],
          "available_consumption": 11,
          "available_production": -78,
          "reserved_consumption": 2,
          "kommune": "Deatnu",
          "fylke": "Finnmark"
        },
        {
          "name": "Vadsø",
          "coordinates": [
            29.764237,
            70.078486
          ],
          "available_consumption": 1,
          "available_production": -35,
          "reserved_consumption": 0,
          "kommune": "Vadsø",
          "fylke": "Finnmark"
        },
        {
          "name": "Varangerbotn",
          "coordinates": [
            28.542137,
            70.172213
          ],
          "available_consumption": 1,
          "available_production": -5,
          "reserved_consumption": 0,
          "kommune": "Unjárga",
          "fylke": "Finnmark"
        },
        {
          "name": "Varangerhalvøya",
          "coordinates": [
            [
              [
                29.936431665781726,
                70.04351093534328
              ],
              [
                30.386677361501512,
                70.10516250989087
              ],
              [
                30.579639802524582,
                70.20478654400304
              ],
              [
                30.832903006366138,
                70.23335671518822
              ],
              [
                31.130386769610283,
                70.28088571703952
              ],
              [
                31.291188803796388,
                70.3850635264993
              ],
              [
                30.94546443029776,
                70.46587434177269
              ],
              [
                30.50727888714033,
                70.57312454023776
              ],
              [
                30.378637259792697,
                70.57847216490296
              ],
              [
                30.306276344408502,
                70.64786261836952
              ],
              [
                30.18969486962328,
                70.70771955724359
              ],
              [
                29.87211085210626,
                70.71037572826992
              ],
              [
                29.707288767066558,
                70.75415179210862
              ],
              [
                29.490206020922187,
                70.72763226707161
              ],
              [
                29.36558444442818,
                70.82029708420339
              ],
              [
                29.140461596568315,
                70.88359070496188
              ],
              [
                28.979659562382153,
                70.89543585522028
              ],
              [
                28.77463696879508,
                70.86383307610015
              ],
              [
                28.774636968796273,
                70.70771955724035
              ],
              [
                28.70459375210541,
                70.55727799949341
              ],
              [
                28.374949582024357,
                70.52245663882087
              ],
              [
                28.298568615786564,
                70.43917903506312
              ],
              [
                28.51967141279124,
                70.363666580549
              ],
              [
                28.507611260228828,
                70.19682483429892
              ],
              [
                29.936431665781726,
                70.04351093534328
              ]
            ]
          ],
          "available_consumption": 130,
          "available_production": 170,
          "reserved_consumption": 120,
          "kommune": null,
          "fylke": null
        }
      ]
    },
    "bkk": {
      "file": "bkk.json",
      "feature_count": 54,
      "publisher": "BKK",
      "locations": [
        {
          "name": "Vadheim transformatorstasjon",
          "coordinates": [
            5.838311788803679,
            61.208555923503525
          ],
          "available_consumption": 0,
          "available_production": 8,
          "reserved_consumption": 0,
          "kommune": "Høyanger",
          "fylke": "Vestland"
        },
        {
          "name": "Myklebustdalen transformatorstasjon",
          "coordinates": [
            6.385698839321634,
            61.52259315689207
          ],
          "available_consumption": 4,
          "available_production": 8,
          "reserved_consumption": 0,
          "kommune": "Sunnfjord",
          "fylke": "Vestland"
        },
        {
          "name": "Nedre Svultingen transformatorstasjon",
          "coordinates": [
            5.350223076042795,
            61.15415054316361
          ],
          "available_consumption": 1,
          "available_production": 10,
          "reserved_consumption": 0,
          "kommune": "Hyllestad",
          "fylke": "Vestland"
        },
        {
          "name": "Lutelandet transformatorstasjon",
          "coordinates": [
            4.975708281851752,
            61.25575665070539
          ],
          "available_consumption": 1,
          "available_production": 19,
          "reserved_consumption": 0,
          "kommune": "Fjaler",
          "fylke": "Vestland"
        },
        {
          "name": "Hålandsfossen transformatorstasjon",
          "coordinates": [
            5.4137638943879836,
            61.330388551029614
          ],
          "available_consumption": 1,
          "available_production": 23,
          "reserved_consumption": 0,
          "kommune": "Fjaler",
          "fylke": "Vestland"
        },
        {
          "name": "Naustdal transformatorstasjon",
          "coordinates": [
            5.71946354614397,
            61.51796597226766
          ],
          "available_consumption": 1.5,
          "available_production": 5,
          "reserved_consumption": 0,
          "kommune": "Sunnfjord",
          "fylke": "Vestland"
        },
        {
          "name": "Sande Transformatorstasjon",
          "coordinates": [
            5.775816066454922,
            61.326686339193515
          ],
          "available_consumption": 1.5,
          "available_production": 19,
          "reserved_consumption": 0,
          "kommune": "Sunnfjord",
          "fylke": "Vestland"
        },
        {
          "name": "Stakaldefoss transformatorstasjon",
          "coordinates": [
            6.0107550434900645,
            61.44502627617649
          ],
          "available_consumption": 5,
          "available_production": 20,
          "reserved_consumption": 0,
          "kommune": "Sunnfjord",
          "fylke": "Vestland"
        },
        {
          "name": "Tefre transformatorstasjon",
          "coordinates": [
            5.897014110926335,
            61.46108980684801
          ],
          "available_consumption": 1,
          "available_production": 11,
          "reserved_consumption": 0,
          "kommune": "Sunnfjord",
          "fylke": "Vestland"
        },
        {
          "name": "Hydro Høyanger",
          "coordinates": [
            6.074941783098694,
            61.22312615113802
          ],
          "available_consumption": 0,
          "available_production": 5,
          "reserved_consumption": 0,
          "kommune": "Høyanger",
          "fylke": "Vestland"
        },
        {
          "name": "Arnavågen",
          "coordinates": [
            5.4535,
            60.4285
          ],
          "available_consumption": 9,
          "available_production": -46,
          "reserved_consumption": 0,
          "kommune": "Bergen",
          "fylke": "Vestland"
        },
        {
          "name": "Blomøy",
          "coordinates": [
            4.8703,
            60.5522
          ],
          "available_consumption": 20,
          "available_production": 40,
          "reserved_consumption": 9,
          "kommune": "Øygarden",
          "fylke": "Vestland"
        },
        {
          "name": "Breivik",
          "coordinates": [
            5.1954,
            60.3676
          ],
          "available_consumption": 0,
          "available_production": -32,
          "reserved_consumption": 0,
          "kommune": "Bergen",
          "fylke": "Vestland"
        },
        {
          "name": "Dale",
          "coordinates": [
            5.8158,
            60.5827
          ],
          "available_consumption": 0,
          "available_production": -13,
          "reserved_consumption": 20,
          "kommune": "Vaksdal",
          "fylke": "Vestland"
        },
        {
          "name": "Dokken",
          "coordinates": [
            5.313,
            60.3898
          ],
          "available_consumption": 1,
          "available_production": 0,
          "reserved_consumption": 0,
          "kommune": "Bergen",
          "fylke": "Vestland"
        },
        {
          "name": "Dolvik",
          "coordinates": [
            5.2684,
            60.3027
          ],
          "available_consumption": 11,
          "available_production": 0,
          "reserved_consumption": 10,
          "kommune": "Bergen",
          "fylke": "Vestland"
        },
        {
          "name": "Eidsvåg",
          "coordinates": [
            5.3214,
            60.4348
          ],
          "available_consumption": 0,
          "available_production": -15,
          "reserved_consumption": 0,
          "kommune": "Bergen",
          "fylke": "Vestland"
        },
        {
          "name": "Frøyset",
          "coordinates": [
            5.1874,
            60.8792
          ],
          "available_consumption": 1,
          "available_production": -5,
          "reserved_consumption": 0,
          "kommune": "Masfjorden",
          "fylke": "Vestland"
        },
        {
          "name": "Fyllingsdalen",
          "coordinates": [
            5.2952,
            60.3476
          ],
          "available_consumption": 9.3,
          "available_production": 0,
          "reserved_consumption": 0,
          "kommune": "Bergen",
          "fylke": "Vestland"
        },
        {
          "name": "Hammersland",
          "coordinates": [
            5.0749,
            60.2621
          ],
          "available_consumption": 23,
          "available_production": -64,
          "reserved_consumption": 0,
          "kommune": "Øygarden",
          "fylke": "Vestland"
        },
        {
          "name": "Haukeland",
          "coordinates": [
            5.3589,
            60.3787
          ],
          "available_consumption": 1,
          "available_production": 0,
          "reserved_consumption": 0,
          "kommune": "Bergen",
          "fylke": "Vestland"
        },
        {
          "name": "Helldal",
          "coordinates": [
            5.3808,
            60.3287
          ],
          "available_consumption": 5,
          "available_production": 0,
          "reserved_consumption": 0,
          "kommune": "Bergen",
          "fylke": "Vestland"
        },
        {
          "name": "Hellen",
          "coordinates": [
            5.3073,
            60.4238
          ],
          "available_consumption": 0,
          "available_production": -18,
          "reserved_consumption": 0,
          "kommune": "Bergen",
          "fylke": "Vestland"
        },
        {
          "name": "Hylkje",
          "coordinates": [
            5.3402,
            60.5097
          ],
          "available_consumption": 1,
          "available_production": -32,
          "reserved_consumption": 0,
          "kommune": "Bergen",
          "fylke": "Vestland"
        },
        {
          "name": "Kartveit",
          "coordinates": [
            5.0943,
            60.6251
          ],
          "available_consumption": 24,
          "available_production": -71,
          "reserved_consumption": 0,
          "kommune": "Alver",
          "fylke": "Vestland"
        },
        {
          "name": "Koengen",
          "coordinates": [
            5.3216,
            60.4005
          ],
          "available_consumption": 32.5,
          "available_production": 0,
          "reserved_consumption": 0,
          "kommune": "Bergen",
          "fylke": "Vestland"
        },
        {
          "name": "Liland",
          "coordinates": [
            5.2478,
            60.2834
          ],
          "available_consumption": 20,
          "available_production": 0,
          "reserved_consumption": 0,
          "kommune": "Bergen",
          "fylke": "Vestland"
        },
        {
          "name": "Litlesotra",
          "coordinates": [
            5.1321,
            60.3649
          ],
          "available_consumption": 36,
          "available_production": -96,
          "reserved_consumption": 0,
          "kommune": "Øygarden",
          "fylke": "Vestland"
        },
        {
          "name": "Loddefjord",
          "coordinates": [
            5.2357,
            60.3649
          ],
          "available_consumption": 1,
          "available_production": 0,
          "reserved_consumption": 0,
          "kommune": "Bergen",
          "fylke": "Vestland"
        },
        {
          "name": "Matre",
          "coordinates": [
            5.5907,
            60.8744
          ],
          "available_consumption": 0,
          "available_production": 0,
          "reserved_consumption": 30,
          "kommune": "Masfjorden",
          "fylke": "Vestland"
        },
        {
          "name": "Meland",
          "coordinates": [
            5.1822,
            60.5462
          ],
          "available_consumption": 0,
          "available_production": -25,
          "reserved_consumption": 0,
          "kommune": "Alver",
          "fylke": "Vestland"
        },
        {
          "name": "Midtbygda",
          "coordinates": [
            5.3388,
            60.4656
          ],
          "available_consumption": 11,
          "available_production": -90,
          "reserved_consumption": 0,
          "kommune": "Bergen",
          "fylke": "Vestland"
        },
        {
          "name": "Mongstad",
          "coordinates": [
            5.0258,
            60.802
          ],
          "available_consumption": 8,
          "available_production": -63,
          "reserved_consumption": 0,
          "kommune": "Alver",
          "fylke": "Vestland"
        },
        {
          "name": "Myster",
          "coordinates": [
            5.8102,
            60.7418
          ],
          "available_consumption": 2,
          "available_production": -1,
          "reserved_consumption": 0,
          "kommune": "Vaksdal",
          "fylke": "Vestland"
        },
        {
          "name": "Os",
          "coordinates": [
            5.4722,
            60.1913
          ],
          "available_consumption": 4.7,
          "available_production": 0,
          "reserved_consumption": 4,
          "kommune": "Bjørnafjorden",
          "fylke": "Vestland"
        },
        {
          "name": "Osterøy",
          "coordinates": [
            5.5096,
            60.5174
          ],
          "available_consumption": 19,
          "available_production": -50,
          "reserved_consumption": 0,
          "kommune": "Osterøy",
          "fylke": "Vestland"
        },
        {
          "name": "Ravneberget",
          "coordinates": [
            5.3678,
            60.372
          ],
          "available_consumption": 1,
          "available_production": -32,
          "reserved_consumption": 0,
          "kommune": "Bergen",
          "fylke": "Vestland"
        },
        {
          "name": "Rå",
          "coordinates": [
            5.3208,
            60.288
          ],
          "available_consumption": 21,
          "available_production": 0,
          "reserved_consumption": 0,
          "kommune": "Bergen",
          "fylke": "Vestland"
        },
        {
          "name": "Salhusvegen",
          "coordinates": [
            5.3082,
            60.4803
          ],
          "available_consumption": 7.4,
          "available_production": 0,
          "reserved_consumption": 3,
          "kommune": "Bergen",
          "fylke": "Vestland"
        },
        {
          "name": "Samnanger",
          "coordinates": [
            5.8403,
            60.3979
          ],
          "available_consumption": 0,
          "available_production": -22,
          "reserved_consumption": 6,
          "kommune": "Samnanger",
          "fylke": "Vestland"
        },
        {
          "name": "Sandviken",
          "coordinates": [
            5.3273,
            60.4131
          ],
          "available_consumption": 1,
          "available_production": 0,
          "reserved_consumption": 0,
          "kommune": "Bergen",
          "fylke": "Vestland"
        },
        {
          "name": "Sandøy",
          "coordinates": [
            4.9984,
            60.857
          ],
          "available_consumption": 0,
          "available_production": -29,
          "reserved_consumption": 0,
          "kommune": "Gulen",
          "fylke": "Vestland"
        },
        {
          "name": "Seim",
          "coordinates": [
            5.2799,
            60.6106
          ],
          "available_consumption": 24,
          "available_production": -56,
          "reserved_consumption": 0,
          "kommune": "Alver",
          "fylke": "Vestland"
        },
        {
          "name": "Simonsvik",
          "coordinates": [
            5.2691,
            60.3863
          ],
          "available_consumption": 17,
          "available_production": 0,
          "reserved_consumption": 0,
          "kommune": "Bergen",
          "fylke": "Vestland"
        },
        {
          "name": "Skjold",
          "coordinates": [
            5.336,
            60.3077
          ],
          "available_consumption": 8.5,
          "available_production": 0,
          "reserved_consumption": 0,
          "kommune": "Bergen",
          "fylke": "Vestland"
        },
        {
          "name": "Solheim",
          "coordinates": [
            5.3392,
            60.3729
          ],
          "available_consumption": 12,
          "available_production": 0,
          "reserved_consumption": 0,
          "kommune": "Bergen",
          "fylke": "Vestland"
        },
        {
          "name": "Storetveit",
          "coordinates": [
            5.3499,
            60.3508
          ],
          "available_consumption": 1.3,
          "available_production": 0,
          "reserved_consumption": 0,
          "kommune": "Bergen",
          "fylke": "Vestland"
        },
        {
          "name": "Strømgaten",
          "coordinates": [
            5.3299,
            60.3895
          ],
          "available_consumption": 38.5,
          "available_production": 0,
          "reserved_consumption": 0,
          "kommune": "Bergen",
          "fylke": "Vestland"
        },
        {
          "name": "Tangeland",
          "coordinates": [
            5.4546,
            60.3953
          ],
          "available_consumption": 0,
          "available_production": -24,
          "reserved_consumption": 0,
          "kommune": "Bergen",
          "fylke": "Vestland"
        },
        {
          "name": "Ulven",
          "coordinates": [
            5.448,
            60.2101
          ],
          "available_consumption": 0,
          "available_production": -32,
          "reserved_consumption": 0,
          "kommune": "Bjørnafjorden",
          "fylke": "Vestland"
        },
        {
          "name": "Østerbø",
          "coordinates": [
            5.9163,
            61.0774
          ],
          "available_consumption": 6,
          "available_production": -22,
          "reserved_consumption": 0,
          "kommune": "Høyanger",
          "fylke": "Vestland"
        },
        {
          "name": "Ågotnes",
          "coordinates": [
            4.9989,
            60.4041
          ],
          "available_consumption": 13,
          "available_production": -64,
          "reserved_consumption": 2,
          "kommune": "Øygarden",
          "fylke": "Vestland"
        },
        {
          "name": "Førde transformatorstasjon",
          "coordinates": [
            5.853765360850076,
            61.45824352353455
          ],
          "available_consumption": 3,
          "available_production": 23,
          "reserved_consumption": 2,
          "kommune": "Sunnfjord",
          "fylke": "Vestland"
        },
        {
          "name": "Skei transformaotorstasjon",
          "coordinates": [
            6.482220557805277,
            61.57626704047013
          ],
          "available_consumption": 1,
          "available_production": 0,
          "reserved_consumption": 0,
          "kommune": "Sunnfjord",
          "fylke": "Vestland"
        }
      ]
    },
    "bomlo": {
      "file": "bomlo.json",
      "feature_count": 0,
      "publisher": "Bømlo",
      "locations": []
    },
    "elinett": {
      "file": "elinett.json",
      "feature_count": 8,
      "publisher": "Elinett",
      "locations": [
        {
          "name": "Bolli",
          "coordinates": [
            7.340001,
            62.926537
          ],
          "available_consumption": 0,
          "available_production": -14,
          "reserved_consumption": 1,
          "kommune": "Hustadvika",
          "fylke": "Møre og Romsdal"
        },
        {
          "name": "Eidseter",
          "coordinates": [
            7.567161,
            62.799457
          ],
          "available_consumption": 4,
          "available_production": -52,
          "reserved_consumption": 11,
          "kommune": "Molde",
          "fylke": "Møre og Romsdal"
        },
        {
          "name": "Fræna",
          "coordinates": [
            7.11113,
            62.85915
          ],
          "available_consumption": 0,
          "available_production": -135,
          "reserved_consumption": 75,
          "kommune": "Hustadvika",
          "fylke": "Møre og Romsdal"
        },
        {
          "name": "Hauglia",
          "coordinates": [
            7.171195,
            62.858415
          ],
          "available_consumption": 0,
          "available_production": -27,
          "reserved_consumption": 0,
          "kommune": "Hustadvika",
          "fylke": "Møre og Romsdal"
        },
        {
          "name": "Moldeli",
          "coordinates": [
            7.178976,
            62.744275
          ],
          "available_consumption": 4,
          "available_production": -108,
          "reserved_consumption": 16,
          "kommune": "Molde",
          "fylke": "Møre og Romsdal"
        },
        {
          "name": "Årødal",
          "coordinates": [
            7.292904,
            62.779489
          ],
          "available_consumption": 0,
          "available_production": -45,
          "reserved_consumption": 7,
          "kommune": "Molde",
          "fylke": "Møre og Romsdal"
        },
        {
          "name": "Brandhol",
          "coordinates": [
            8.1467,
            62.79365
          ],
          "available_consumption": 0,
          "available_production": -15,
          "reserved_consumption": 1,
          "kommune": "Molde",
          "fylke": "Møre og Romsdal"
        },
        {
          "name": "Syltebø",
          "coordinates": [
            8.13094,
            62.677027
          ],
          "available_consumption": 0,
          "available_production": -15,
          "reserved_consumption": 0,
          "kommune": "Molde",
          "fylke": "Møre og Romsdal"
        }
      ]
    },
    "elvia": {
      "file": "elvia.json",
      "feature_count": 241,
      "publisher": "ELVIA",
      "locations": [
        {
          "name": "Abildsø",
          "coordinates": [
            10.8207023630905,
            59.8895445980029
          ],
          "available_consumption": 0,
          "available_production": -80,
          "reserved_consumption": 0,
          "kommune": "Oslo",
          "fylke": "Oslo"
        },
        {
          "name": "Ajer",
          "coordinates": [
            11.05469,
            60.810632
          ],
          "available_consumption": 7,
          "available_production": -40,
          "reserved_consumption": 0,
          "kommune": "Hamar",
          "fylke": "Innlandet"
        },
        {
          "name": "Akersberget",
          "coordinates": [
            10.7513009325408,
            59.9251111048209
          ],
          "available_consumption": 27,
          "available_production": -120,
          "reserved_consumption": 0,
          "kommune": "Oslo",
          "fylke": "Oslo"
        },
        {
          "name": "Alnabru",
          "coordinates": [
            10.8498562969589,
            59.9278525906667
          ],
          "available_consumption": 28,
          "available_production": -70,
          "reserved_consumption": 0,
          "kommune": "Oslo",
          "fylke": "Oslo"
        },
        {
          "name": "Alvdal",
          "coordinates": [
            10.59107,
            62.124492
          ],
          "available_consumption": 0,
          "available_production": -8,
          "reserved_consumption": 0,
          "kommune": "Alvdal",
          "fylke": "Innlandet"
        },
        {
          "name": "Alvim",
          "coordinates": [
            11.0881814871024,
            59.2753381564269
          ],
          "available_consumption": 6,
          "available_production": -45,
          "reserved_consumption": 0,
          "kommune": "Sarpsborg",
          "fylke": "Østfold"
        },
        {
          "name": "Ammerud",
          "coordinates": [
            10.8713483599999,
            59.9607041674074
          ],
          "available_consumption": 15,
          "available_production": -40,
          "reserved_consumption": 0,
          "kommune": "Oslo",
          "fylke": "Oslo"
        },
        {
          "name": "Aurskog",
          "coordinates": [
            11.4734310866165,
            59.9274649627991
          ],
          "available_consumption": 1,
          "available_production": 0,
          "reserved_consumption": 0,
          "kommune": "Aurskog-Høland",
          "fylke": "Akershus"
        },
        {
          "name": "Bagn",
          "coordinates": [
            9.55046468,
            60.8269004
          ],
          "available_consumption": 4,
          "available_production": -1,
          "reserved_consumption": 0,
          "kommune": "Sør-Aurdal",
          "fylke": "Innlandet"
        },
        {
          "name": "Ballerud",
          "coordinates": [
            10.5743112245369,
            59.9050519430608
          ],
          "available_consumption": 0,
          "available_production": -60,
          "reserved_consumption": 0,
          "kommune": "Bærum",
          "fylke": "Akershus"
        },
        {
          "name": "Begna",
          "coordinates": [
            9.89732854,
            60.64859562
          ],
          "available_consumption": 1,
          "available_production": -1,
          "reserved_consumption": 0,
          "kommune": "Sør-Aurdal",
          "fylke": "Innlandet"
        },
        {
          "name": "Beito",
          "coordinates": [
            8.88149868,
            61.23216344
          ],
          "available_consumption": 6,
          "available_production": -30,
          "reserved_consumption": 0,
          "kommune": "Øystre Slidre",
          "fylke": "Innlandet"
        },
        {
          "name": "Bekkelaget",
          "coordinates": [
            10.7679373025894,
            59.8854695710329
          ],
          "available_consumption": 5,
          "available_production": -52,
          "reserved_consumption": 0,
          "kommune": "Oslo",
          "fylke": "Oslo"
        },
        {
          "name": "Berger",
          "coordinates": [
            10.4696209325409,
            59.8641227610395
          ],
          "available_consumption": 8,
          "available_production": -100,
          "reserved_consumption": 0,
          "kommune": "Asker",
          "fylke": "Akershus"
        },
        {
          "name": "Biri",
          "coordinates": [
            10.61115358,
            60.95226762
          ],
          "available_consumption": 0,
          "available_production": -19,
          "reserved_consumption": 0,
          "kommune": "Gjøvik",
          "fylke": "Innlandet"
        },
        {
          "name": "Bjørkelangen",
          "coordinates": [
            11.5631520145416,
            59.8808240779393
          ],
          "available_consumption": 2,
          "available_production": 0,
          "reserved_consumption": 0,
          "kommune": "Aurskog-Høland",
          "fylke": "Akershus"
        },
        {
          "name": "Bjørnegård",
          "coordinates": [
            10.4996839067458,
            59.8959203130292
          ],
          "available_consumption": 28,
          "available_production": -70,
          "reserved_consumption": 0,
          "kommune": "Bærum",
          "fylke": "Akershus"
        },
        {
          "name": "Blaker",
          "coordinates": [
            11.3079707017135,
            59.9984864934948
          ],
          "available_consumption": 12,
          "available_production": 0,
          "reserved_consumption": 0,
          "kommune": "Lillestrøm",
          "fylke": "Akershus"
        },
        {
          "name": "Blommenholm",
          "coordinates": [
            10.5580902625656,
            59.9038645612357
          ],
          "available_consumption": 3,
          "available_production": -56,
          "reserved_consumption": 0,
          "kommune": "Bærum",
          "fylke": "Akershus"
        },
        {
          "name": "Borgen",
          "coordinates": [
            10.4185424785041,
            59.8281848342118
          ],
          "available_consumption": 19,
          "available_production": -100,
          "reserved_consumption": 0,
          "kommune": "Asker",
          "fylke": "Akershus"
        },
        {
          "name": "Brekke",
          "coordinates": [
            11.5562975406646,
            59.1484477672374
          ],
          "available_consumption": 3,
          "available_production": -7,
          "reserved_consumption": 0,
          "kommune": "Halden",
          "fylke": "Østfold"
        },
        {
          "name": "Briskeby",
          "coordinates": [
            10.7152964735412,
            59.9225645078891
          ],
          "available_consumption": 0,
          "available_production": -80,
          "reserved_consumption": 0,
          "kommune": "Oslo",
          "fylke": "Oslo"
        },
        {
          "name": "Brogata",
          "coordinates": [
            10.9328037901782,
            59.2159585052716
          ],
          "available_consumption": 10,
          "available_production": -60,
          "reserved_consumption": 0,
          "kommune": "Fredrikstad",
          "fylke": "Østfold"
        },
        {
          "name": "Bru",
          "coordinates": [
            10.9107632321548,
            59.7760596204513
          ],
          "available_consumption": 3,
          "available_production": -20,
          "reserved_consumption": 0,
          "kommune": "Nordre Follo",
          "fylke": "Akershus"
        },
        {
          "name": "Brumunddal",
          "coordinates": [
            10.95451567,
            60.87850799
          ],
          "available_consumption": 4,
          "available_production": -40,
          "reserved_consumption": 0,
          "kommune": "Ringsaker",
          "fylke": "Innlandet"
        },
        {
          "name": "Bruvold",
          "coordinates": [
            10.70369685,
            60.92855109
          ],
          "available_consumption": 2,
          "available_production": -20,
          "reserved_consumption": 0,
          "kommune": "Ringsaker",
          "fylke": "Innlandet"
        },
        {
          "name": "Bryn",
          "coordinates": [
            10.8180237324714,
            59.9123038359736
          ],
          "available_consumption": 18,
          "available_production": -72,
          "reserved_consumption": 0,
          "kommune": "Oslo",
          "fylke": "Oslo"
        },
        {
          "name": "Bærums Verk",
          "coordinates": [
            10.5006194748688,
            59.9429566478059
          ],
          "available_consumption": 7,
          "available_production": -65,
          "reserved_consumption": 0,
          "kommune": "Bærum",
          "fylke": "Akershus"
        },
        {
          "name": "Brødløs",
          "coordinates": [
            11.3813782797622,
            59.1402257256909
          ],
          "available_consumption": 3,
          "available_production": -60,
          "reserved_consumption": 0,
          "kommune": "Halden",
          "fylke": "Østfold"
        },
        {
          "name": "Bøler",
          "coordinates": [
            10.8472434131351,
            59.8772384042779
          ],
          "available_consumption": 4,
          "available_production": -30,
          "reserved_consumption": 0,
          "kommune": "Oslo",
          "fylke": "Oslo"
        },
        {
          "name": "Børstad",
          "coordinates": [
            11.0958314,
            60.79994905
          ],
          "available_consumption": 14,
          "available_production": -60,
          "reserved_consumption": 0,
          "kommune": "Hamar",
          "fylke": "Innlandet"
        },
        {
          "name": "Dal",
          "coordinates": [
            11.1912365652942,
            60.2470176030745
          ],
          "available_consumption": 9,
          "available_production": -66,
          "reserved_consumption": 0,
          "kommune": "Eidsvoll",
          "fylke": "Akershus"
        },
        {
          "name": "Denofa",
          "coordinates": [
            10.9516718673896,
            59.1957948850572
          ],
          "available_consumption": 0,
          "available_production": -10,
          "reserved_consumption": 0,
          "kommune": "Fredrikstad",
          "fylke": "Østfold"
        },
        {
          "name": "Dokka",
          "coordinates": [
            10.11275,
            60.820445
          ],
          "available_consumption": 1,
          "available_production": -1,
          "reserved_consumption": 0,
          "kommune": "Nordre Land",
          "fylke": "Innlandet"
        },
        {
          "name": "Drømtorp",
          "coordinates": [
            10.8509733816147,
            59.7142916962798
          ],
          "available_consumption": 10,
          "available_production": -52,
          "reserved_consumption": 0,
          "kommune": "Nordre Follo",
          "fylke": "Akershus"
        },
        {
          "name": "Dyrløkke",
          "coordinates": [
            10.66757,
            59.674954
          ],
          "available_consumption": 11,
          "available_production": -73,
          "reserved_consumption": 0,
          "kommune": "Frogn",
          "fylke": "Akershus"
        },
        {
          "name": "Eidskog",
          "coordinates": [
            12.15725,
            59.97505
          ],
          "available_consumption": 4,
          "available_production": -1,
          "reserved_consumption": 0,
          "kommune": "Eidskog",
          "fylke": "Innlandet"
        },
        {
          "name": "Eiksmarka",
          "coordinates": [
            10.6095790380287,
            59.9452208848333
          ],
          "available_consumption": 4,
          "available_production": -61,
          "reserved_consumption": 0,
          "kommune": "Bærum",
          "fylke": "Akershus"
        },
        {
          "name": "Elverum",
          "coordinates": [
            11.53362,
            60.897046
          ],
          "available_consumption": 6,
          "available_production": 0,
          "reserved_consumption": 0,
          "kommune": "Elverum",
          "fylke": "Innlandet"
        },
        {
          "name": "Enebakk",
          "coordinates": [
            11.0525113624572,
            59.7226947707129
          ],
          "available_consumption": 18,
          "available_production": -72,
          "reserved_consumption": 5,
          "kommune": "Enebakk",
          "fylke": "Akershus"
        },
        {
          "name": "Engerdal",
          "coordinates": [
            11.9190248,
            61.80952879
          ],
          "available_consumption": 2,
          "available_production": -13,
          "reserved_consumption": 0,
          "kommune": "Engerdal",
          "fylke": "Innlandet"
        },
        {
          "name": "Engjom",
          "coordinates": [
            10.17391314,
            61.2875988
          ],
          "available_consumption": 1,
          "available_production": -19,
          "reserved_consumption": 0,
          "kommune": "Gausdal",
          "fylke": "Innlandet"
        },
        {
          "name": "Fall",
          "coordinates": [
            10.36267884,
            60.64899579
          ],
          "available_consumption": 0,
          "available_production": -1,
          "reserved_consumption": 0,
          "kommune": "Søndre Land",
          "fylke": "Innlandet"
        },
        {
          "name": "Faslefoss",
          "coordinates": [
            9.30068965,
            60.95706267
          ],
          "available_consumption": 2,
          "available_production": -1,
          "reserved_consumption": 0,
          "kommune": "Nord-Aurdal",
          "fylke": "Innlandet"
        },
        {
          "name": "Finstad",
          "coordinates": [
            10.8240623030758,
            59.7145643429748
          ],
          "available_consumption": 4,
          "available_production": -40,
          "reserved_consumption": 0,
          "kommune": "Nordre Follo",
          "fylke": "Akershus"
        },
        {
          "name": "Fjelle",
          "coordinates": [
            10.8642399094009,
            59.1953903393433
          ],
          "available_consumption": 0,
          "available_production": -24,
          "reserved_consumption": 0,
          "kommune": "Fredrikstad",
          "fylke": "Østfold"
        },
        {
          "name": "Fjellhamar",
          "coordinates": [
            10.97999,
            59.939639
          ],
          "available_consumption": 9,
          "available_production": -50,
          "reserved_consumption": 0,
          "kommune": "Lørenskog",
          "fylke": "Akershus"
        },
        {
          "name": "Fjærå",
          "coordinates": [
            10.7908755681228,
            59.2668054124888
          ],
          "available_consumption": 0,
          "available_production": -24,
          "reserved_consumption": 0,
          "kommune": "Fredrikstad",
          "fylke": "Østfold"
        },
        {
          "name": "Fornebu",
          "coordinates": [
            10.6245116884994,
            59.9065845352813
          ],
          "available_consumption": 19,
          "available_production": -90,
          "reserved_consumption": 0,
          "kommune": "Bærum",
          "fylke": "Akershus"
        },
        {
          "name": "Furnes",
          "coordinates": [
            11.04438686,
            60.82760057
          ],
          "available_consumption": 0,
          "available_production": -15,
          "reserved_consumption": 0,
          "kommune": "Hamar",
          "fylke": "Innlandet"
        },
        {
          "name": "Fusdal",
          "coordinates": [
            10.4450204957008,
            59.8334747377098
          ],
          "available_consumption": 0,
          "available_production": -80,
          "reserved_consumption": 0,
          "kommune": "Asker",
          "fylke": "Akershus"
        },
        {
          "name": "Fåberg",
          "coordinates": [
            10.421951457672,
            61.1385325749597
          ],
          "available_consumption": 4,
          "available_production": -60,
          "reserved_consumption": 0,
          "kommune": "Lillehammer",
          "fylke": "Innlandet"
        },
        {
          "name": "Gamlebyen",
          "coordinates": [
            10.9627158883953,
            59.2043360921254
          ],
          "available_consumption": 1,
          "available_production": -50,
          "reserved_consumption": 0,
          "kommune": "Fredrikstad",
          "fylke": "Østfold"
        },
        {
          "name": "Gansdalen",
          "coordinates": [
            11.2617739927292,
            59.8649328551625
          ],
          "available_consumption": 9,
          "available_production": 0,
          "reserved_consumption": 0,
          "kommune": "Lillestrøm",
          "fylke": "Akershus"
        },
        {
          "name": "Garder",
          "coordinates": [
            11.0509127116393,
            60.19355
          ],
          "available_consumption": 11,
          "available_production": -54,
          "reserved_consumption": 0,
          "kommune": "Ullensaker",
          "fylke": "Akershus"
        },
        {
          "name": "Gjersjøen",
          "coordinates": [
            10.7776789203071,
            59.8091883268601
          ],
          "available_consumption": 13,
          "available_production": -32,
          "reserved_consumption": 0,
          "kommune": "Nordre Follo",
          "fylke": "Akershus"
        },
        {
          "name": "Gjestad",
          "coordinates": [
            11.1568976392173,
            60.1431172292751
          ],
          "available_consumption": 22,
          "available_production": -120,
          "reserved_consumption": 0,
          "kommune": "Ullensaker",
          "fylke": "Akershus"
        },
        {
          "name": "Gjøvik",
          "coordinates": [
            10.671952,
            60.78726067
          ],
          "available_consumption": 10,
          "available_production": -2,
          "reserved_consumption": 0,
          "kommune": "Gjøvik",
          "fylke": "Innlandet"
        },
        {
          "name": "Gleng",
          "coordinates": [
            11.1144754809856,
            59.289292089546
          ],
          "available_consumption": 7,
          "available_production": -50,
          "reserved_consumption": 0,
          "kommune": "Sarpsborg",
          "fylke": "Østfold"
        },
        {
          "name": "Gluppe",
          "coordinates": [
            10.9186248075485,
            59.2400423062102
          ],
          "available_consumption": 0,
          "available_production": -27,
          "reserved_consumption": 0,
          "kommune": "Fredrikstad",
          "fylke": "Østfold"
        },
        {
          "name": "Gotland",
          "coordinates": [
            11.1535974378203,
            60.0742138665538
          ],
          "available_consumption": 0,
          "available_production": -66,
          "reserved_consumption": 0,
          "kommune": "Ullensaker",
          "fylke": "Akershus"
        },
        {
          "name": "Gran",
          "coordinates": [
            11.1031857718277,
            60.189188653883
          ],
          "available_consumption": 3,
          "available_production": -60,
          "reserved_consumption": 0,
          "kommune": "Ullensaker",
          "fylke": "Akershus"
        },
        {
          "name": "Granstangen",
          "coordinates": [
            10.8971619455819,
            59.9472260355151
          ],
          "available_consumption": 2,
          "available_production": -40,
          "reserved_consumption": 8,
          "kommune": "Oslo",
          "fylke": "Oslo"
        },
        {
          "name": "Greften",
          "coordinates": [
            11.20310293,
            60.85239965
          ],
          "available_consumption": 4,
          "available_production": -32,
          "reserved_consumption": 0,
          "kommune": "Hamar",
          "fylke": "Innlandet"
        },
        {
          "name": "Greåker",
          "coordinates": [
            11.0349902106884,
            59.2639959166675
          ],
          "available_consumption": 0,
          "available_production": -20,
          "reserved_consumption": 0,
          "kommune": "Sarpsborg",
          "fylke": "Østfold"
        },
        {
          "name": "Grønland",
          "coordinates": [
            10.7589673789607,
            59.9138300720275
          ],
          "available_consumption": 63,
          "available_production": -120,
          "reserved_consumption": 0,
          "kommune": "Oslo",
          "fylke": "Oslo"
        },
        {
          "name": "Grålum",
          "coordinates": [
            11.05723043684,
            59.2942823061841
          ],
          "available_consumption": 0,
          "available_production": -60,
          "reserved_consumption": 0,
          "kommune": "Sarpsborg",
          "fylke": "Østfold"
        },
        {
          "name": "Gyldenløve",
          "coordinates": [
            11.4094392417334,
            59.121624668647
          ],
          "available_consumption": 21,
          "available_production": -75,
          "reserved_consumption": 0,
          "kommune": "Halden",
          "fylke": "Østfold"
        },
        {
          "name": "Haga",
          "coordinates": [
            11.2941234652901,
            59.5394720791947
          ],
          "available_consumption": 9,
          "available_production": 0,
          "reserved_consumption": 0,
          "kommune": "Indre Østfold",
          "fylke": "Østfold"
        },
        {
          "name": "Hage",
          "coordinates": [
            10.47373228,
            61.1014953
          ],
          "available_consumption": 4,
          "available_production": -50,
          "reserved_consumption": 0,
          "kommune": "Lillehammer",
          "fylke": "Innlandet"
        },
        {
          "name": "Halmstad",
          "coordinates": [
            10.7419756812286,
            59.3814310704711
          ],
          "available_consumption": 0,
          "available_production": -35,
          "reserved_consumption": 0,
          "kommune": "Moss",
          "fylke": "Østfold"
        },
        {
          "name": "Hammeren",
          "coordinates": [
            11.2012428045272,
            59.9841721579812
          ],
          "available_consumption": 6,
          "available_production": 0,
          "reserved_consumption": 0,
          "kommune": "Lillestrøm",
          "fylke": "Akershus"
        },
        {
          "name": "Hammerstad",
          "coordinates": [
            11.2197232638931,
            60.3320736450828
          ],
          "available_consumption": 8,
          "available_production": -54,
          "reserved_consumption": 0,
          "kommune": "Eidsvoll",
          "fylke": "Akershus"
        },
        {
          "name": "Haraldrud",
          "coordinates": [
            10.8288530330657,
            59.9267473056484
          ],
          "available_consumption": 0,
          "available_production": -60,
          "reserved_consumption": 10,
          "kommune": "Oslo",
          "fylke": "Oslo"
        },
        {
          "name": "Haslum",
          "coordinates": [
            10.5750569669341,
            59.9233333665319
          ],
          "available_consumption": 3,
          "available_production": -60,
          "reserved_consumption": 0,
          "kommune": "Bærum",
          "fylke": "Akershus"
        },
        {
          "name": "Haugenstua",
          "coordinates": [
            10.9079992642402,
            59.954088832887
          ],
          "available_consumption": 8,
          "available_production": -40,
          "reserved_consumption": 0,
          "kommune": "Oslo",
          "fylke": "Oslo"
        },
        {
          "name": "Heggedal",
          "coordinates": [
            10.4551030919265,
            59.7936668198498
          ],
          "available_consumption": 27,
          "available_production": -90,
          "reserved_consumption": 0,
          "kommune": "Asker",
          "fylke": "Akershus"
        },
        {
          "name": "Heggenes",
          "coordinates": [
            9.04805402,
            61.15751205
          ],
          "available_consumption": 2,
          "available_production": -1,
          "reserved_consumption": 0,
          "kommune": "Øystre Slidre",
          "fylke": "Innlandet"
        },
        {
          "name": "Henstad",
          "coordinates": [
            11.1649775214957,
            59.5861898773955
          ],
          "available_consumption": 8,
          "available_production": 0,
          "reserved_consumption": 0,
          "kommune": "Indre Østfold",
          "fylke": "Østfold"
        },
        {
          "name": "Hjellum",
          "coordinates": [
            11.15545,
            60.800955
          ],
          "available_consumption": 7,
          "available_production": -40,
          "reserved_consumption": 0,
          "kommune": "Hamar",
          "fylke": "Innlandet"
        },
        {
          "name": "Hoff",
          "coordinates": [
            10.6749333642396,
            59.9248068814069
          ],
          "available_consumption": 0,
          "available_production": -50,
          "reserved_consumption": 0,
          "kommune": "Oslo",
          "fylke": "Oslo"
        },
        {
          "name": "Holmlia",
          "coordinates": [
            10.7939478146457,
            59.8292785015823
          ],
          "available_consumption": 9,
          "available_production": -45,
          "reserved_consumption": 0,
          "kommune": "Oslo",
          "fylke": "Oslo"
        },
        {
          "name": "Holstad",
          "coordinates": [
            10.8072038184548,
            59.6761196668631
          ],
          "available_consumption": 18,
          "available_production": -50,
          "reserved_consumption": 0,
          "kommune": "Ås",
          "fylke": "Akershus"
        },
        {
          "name": "Hommerstad",
          "coordinates": [
            11.33309582,
            60.80849676
          ],
          "available_consumption": 5,
          "available_production": -40,
          "reserved_consumption": 0,
          "kommune": "Løten",
          "fylke": "Innlandet"
        },
        {
          "name": "Horta",
          "coordinates": [
            11.16815676,
            61.37574736
          ],
          "available_consumption": 8,
          "available_production": 0,
          "reserved_consumption": 0,
          "kommune": "Stor-Elvdal",
          "fylke": "Innlandet"
        },
        {
          "name": "Hovinmoen",
          "coordinates": [
            11.1665697583011,
            60.1781995739308
          ],
          "available_consumption": 9,
          "available_production": -48,
          "reserved_consumption": 0,
          "kommune": "Ullensaker",
          "fylke": "Akershus"
        },
        {
          "name": "Hunderfossen",
          "coordinates": [
            10.43902568,
            61.21957244
          ],
          "available_consumption": 6,
          "available_production": -20,
          "reserved_consumption": 0,
          "kommune": "Lillehammer",
          "fylke": "Innlandet"
        },
        {
          "name": "Hurdal",
          "coordinates": [
            11.0773308736801,
            60.4333205795603
          ],
          "available_consumption": 0,
          "available_production": 0,
          "reserved_consumption": 0,
          "kommune": "Hurdal",
          "fylke": "Akershus"
        },
        {
          "name": "Hvaler",
          "coordinates": [
            10.9385932685089,
            59.0757920570175
          ],
          "available_consumption": 2,
          "available_production": -30,
          "reserved_consumption": 0,
          "kommune": "Hvaler",
          "fylke": "Østfold"
        },
        {
          "name": "Høybråten",
          "coordinates": [
            10.9209729153442,
            59.9466739899923
          ],
          "available_consumption": 5,
          "available_production": -40,
          "reserved_consumption": 0,
          "kommune": "Oslo",
          "fylke": "Oslo"
        },
        {
          "name": "Ilseng",
          "coordinates": [
            11.22055436,
            60.77275707
          ],
          "available_consumption": 1,
          "available_production": -10,
          "reserved_consumption": 0,
          "kommune": "Stange",
          "fylke": "Innlandet"
        },
        {
          "name": "Isebakke",
          "coordinates": [
            11.3170364735412,
            59.1204578938747
          ],
          "available_consumption": 4,
          "available_production": -10,
          "reserved_consumption": 0,
          "kommune": "Halden",
          "fylke": "Østfold"
        },
        {
          "name": "Jahren",
          "coordinates": [
            11.1849707876967,
            59.5762575089597
          ],
          "available_consumption": 10,
          "available_production": 0,
          "reserved_consumption": 0,
          "kommune": "Indre Østfold",
          "fylke": "Østfold"
        },
        {
          "name": "Jar",
          "coordinates": [
            10.6290385423278,
            59.9195040244518
          ],
          "available_consumption": 26,
          "available_production": -77,
          "reserved_consumption": 0,
          "kommune": "Bærum",
          "fylke": "Akershus"
        },
        {
          "name": "Jeløy",
          "coordinates": [
            10.65144,
            59.43441
          ],
          "available_consumption": 25,
          "available_production": -75,
          "reserved_consumption": 0,
          "kommune": "Moss",
          "fylke": "Østfold"
        },
        {
          "name": "Jordal",
          "coordinates": [
            10.7820818247637,
            59.9081779000553
          ],
          "available_consumption": 51,
          "available_production": -120,
          "reserved_consumption": 0,
          "kommune": "Oslo",
          "fylke": "Oslo"
        },
        {
          "name": "Kalvedalen",
          "coordinates": [
            8.75856615078737,
            61.2583790908015
          ],
          "available_consumption": 2,
          "available_production": 0,
          "reserved_consumption": 0,
          "kommune": "Vang",
          "fylke": "Innlandet"
        },
        {
          "name": "Kambo",
          "coordinates": [
            10.6953612857055,
            59.4738406236568
          ],
          "available_consumption": 15,
          "available_production": -50,
          "reserved_consumption": 0,
          "kommune": "Moss",
          "fylke": "Østfold"
        },
        {
          "name": "Kampenes",
          "coordinates": [
            11.181248979168,
            59.2797137633799
          ],
          "available_consumption": 0,
          "available_production": -50,
          "reserved_consumption": 0,
          "kommune": "Sarpsborg",
          "fylke": "Østfold"
        },
        {
          "name": "Kastellet",
          "coordinates": [
            10.7916773590737,
            59.8726334851582
          ],
          "available_consumption": 1,
          "available_production": -61,
          "reserved_consumption": 0,
          "kommune": "Oslo",
          "fylke": "Oslo"
        },
        {
          "name": "K-H",
          "coordinates": [
            11.1254214576721,
            59.2646562990062
          ],
          "available_consumption": 0,
          "available_production": -20,
          "reserved_consumption": 25,
          "kommune": "Sarpsborg",
          "fylke": "Østfold"
        },
        {
          "name": "Kirkenær",
          "coordinates": [
            12.03668181,
            60.46646303
          ],
          "available_consumption": 4,
          "available_production": -1,
          "reserved_consumption": 0,
          "kommune": "Grue",
          "fylke": "Innlandet"
        },
        {
          "name": "Kjellerholen",
          "coordinates": [
            11.0076390403365,
            59.9781252953152
          ],
          "available_consumption": 2,
          "available_production": -54,
          "reserved_consumption": 0,
          "kommune": "Lillestrøm",
          "fylke": "Akershus"
        },
        {
          "name": "Kjelsås",
          "coordinates": [
            10.7896228268648,
            59.9647416154834
          ],
          "available_consumption": 6,
          "available_production": -40,
          "reserved_consumption": 0,
          "kommune": "Oslo",
          "fylke": "Oslo"
        },
        {
          "name": "Klemetsrud",
          "coordinates": [
            10.8372966455079,
            59.8393345207843
          ],
          "available_consumption": 23,
          "available_production": -42,
          "reserved_consumption": 0,
          "kommune": "Oslo",
          "fylke": "Oslo"
        },
        {
          "name": "Kongsengen",
          "coordinates": [
            10.79248338,
            60.69060673
          ],
          "available_consumption": 9,
          "available_production": -1,
          "reserved_consumption": 0,
          "kommune": "Østre Toten",
          "fylke": "Innlandet"
        },
        {
          "name": "Kongsvinger",
          "coordinates": [
            11.97844696,
            60.19489262
          ],
          "available_consumption": 7,
          "available_production": -1,
          "reserved_consumption": 0,
          "kommune": "Kongsvinger",
          "fylke": "Innlandet"
        },
        {
          "name": "Koppang",
          "coordinates": [
            11.07233423,
            61.56561839
          ],
          "available_consumption": 4,
          "available_production": -1,
          "reserved_consumption": 0,
          "kommune": "Stor-Elvdal",
          "fylke": "Innlandet"
        },
        {
          "name": "Korsvoll",
          "coordinates": [
            10.7659347533035,
            59.9602887637575
          ],
          "available_consumption": 10,
          "available_production": -60,
          "reserved_consumption": 0,
          "kommune": "Oslo",
          "fylke": "Oslo"
        },
        {
          "name": "Krabyskogen",
          "coordinates": [
            10.87595035,
            60.65170678
          ],
          "available_consumption": 3,
          "available_production": -1,
          "reserved_consumption": 0,
          "kommune": "Østre Toten",
          "fylke": "Innlandet"
        },
        {
          "name": "Kringsjå",
          "coordinates": [
            10.7387775463104,
            59.9619725830433
          ],
          "available_consumption": 17,
          "available_production": -60,
          "reserved_consumption": 0,
          "kommune": "Oslo",
          "fylke": "Oslo"
        },
        {
          "name": "Kråkerøy",
          "coordinates": [
            10.9359921865082,
            59.2065775479175
          ],
          "available_consumption": 5,
          "available_production": -60,
          "reserved_consumption": 0,
          "kommune": "Fredrikstad",
          "fylke": "Østfold"
        },
        {
          "name": "Kråkstad",
          "coordinates": [
            10.8945729447746,
            59.6838461271374
          ],
          "available_consumption": 6,
          "available_production": -25,
          "reserved_consumption": 0,
          "kommune": "Nordre Follo",
          "fylke": "Akershus"
        },
        {
          "name": "Kvisler",
          "coordinates": [
            11.97956127,
            60.55602996
          ],
          "available_consumption": 6,
          "available_production": -1,
          "reserved_consumption": 0,
          "kommune": "Åsnes",
          "fylke": "Innlandet"
        },
        {
          "name": "Lambertseter",
          "coordinates": [
            10.8283657718277,
            59.8714041522913
          ],
          "available_consumption": 9,
          "available_production": -52,
          "reserved_consumption": 0,
          "kommune": "Oslo",
          "fylke": "Oslo"
        },
        {
          "name": "Leirdal",
          "coordinates": [
            10.8785304662703,
            59.9363805141677
          ],
          "available_consumption": 12,
          "available_production": -40,
          "reserved_consumption": 0,
          "kommune": "Oslo",
          "fylke": "Oslo"
        },
        {
          "name": "Leiret",
          "coordinates": [
            11.57498049,
            60.87809038
          ],
          "available_consumption": 0,
          "available_production": 0,
          "reserved_consumption": 0,
          "kommune": "Elverum",
          "fylke": "Innlandet"
        },
        {
          "name": "Leirsund",
          "coordinates": [
            11.0818644589996,
            59.9928496410177
          ],
          "available_consumption": 6,
          "available_production": -54,
          "reserved_consumption": 0,
          "kommune": "Lillestrøm",
          "fylke": "Akershus"
        },
        {
          "name": "Lilleaker",
          "coordinates": [
            10.6408541531352,
            59.9216255634021
          ],
          "available_consumption": 19,
          "available_production": -80,
          "reserved_consumption": 0,
          "kommune": "Oslo",
          "fylke": "Oslo"
        },
        {
          "name": "Lillestrøm",
          "coordinates": [
            11.0625707582664,
            59.9482571392114
          ],
          "available_consumption": 15,
          "available_production": -60,
          "reserved_consumption": 0,
          "kommune": "Lillestrøm",
          "fylke": "Akershus"
        },
        {
          "name": "Lillo",
          "coordinates": [
            10.7728381349181,
            59.9454315655977
          ],
          "available_consumption": 38,
          "available_production": -90,
          "reserved_consumption": 0,
          "kommune": "Oslo",
          "fylke": "Oslo"
        },
        {
          "name": "Linderud",
          "coordinates": [
            10.8312036441802,
            59.939076203884
          ],
          "available_consumption": 23,
          "available_production": -70,
          "reserved_consumption": 0,
          "kommune": "Oslo",
          "fylke": "Oslo"
        },
        {
          "name": "Lismarka",
          "coordinates": [
            10.62360866,
            61.06797913
          ],
          "available_consumption": 2,
          "available_production": -20,
          "reserved_consumption": 0,
          "kommune": "Ringsaker",
          "fylke": "Innlandet"
        },
        {
          "name": "Lomen",
          "coordinates": [
            8.87935831,
            61.13560263
          ],
          "available_consumption": 3,
          "available_production": -1,
          "reserved_consumption": 0,
          "kommune": "Vestre Slidre",
          "fylke": "Innlandet"
        },
        {
          "name": "Lunde",
          "coordinates": [
            10.27384496,
            61.2289401
          ],
          "available_consumption": 7,
          "available_production": -29,
          "reserved_consumption": 0,
          "kommune": "Gausdal",
          "fylke": "Innlandet"
        },
        {
          "name": "Lystad",
          "coordinates": [
            11.2241326256561,
            59.962198649197
          ],
          "available_consumption": 13,
          "available_production": 0,
          "reserved_consumption": 0,
          "kommune": "Lillestrøm",
          "fylke": "Akershus"
        },
        {
          "name": "Løken",
          "coordinates": [
            11.4729190991973,
            59.7994097973696
          ],
          "available_consumption": 5,
          "available_production": 0,
          "reserved_consumption": 0,
          "kommune": "Aurskog-Høland",
          "fylke": "Akershus"
        },
        {
          "name": "Løren",
          "coordinates": [
            10.7935902625656,
            59.9300722111063
          ],
          "available_consumption": 18,
          "available_production": -60,
          "reserved_consumption": 0,
          "kommune": "Oslo",
          "fylke": "Oslo"
        },
        {
          "name": "Løvbergsmoen",
          "coordinates": [
            11.60711562,
            60.90199739
          ],
          "available_consumption": 5,
          "available_production": 0,
          "reserved_consumption": 0,
          "kommune": "Elverum",
          "fylke": "Innlandet"
        },
        {
          "name": "Majorstua",
          "coordinates": [
            10.7155507196044,
            59.9329916118726
          ],
          "available_consumption": 49,
          "available_production": -120,
          "reserved_consumption": 0,
          "kommune": "Oslo",
          "fylke": "Oslo"
        },
        {
          "name": "Melleby",
          "coordinates": [
            10.9901363015746,
            59.6229834364006
          ],
          "available_consumption": 0,
          "available_production": 0,
          "reserved_consumption": 93,
          "kommune": "Indre Østfold",
          "fylke": "Østfold"
        },
        {
          "name": "Mellegaard",
          "coordinates": [
            11.497130728836,
            59.3600552394818
          ],
          "available_consumption": 9,
          "available_production": 0,
          "reserved_consumption": 0,
          "kommune": "Rakkestad",
          "fylke": "Østfold"
        },
        {
          "name": "Melløs",
          "coordinates": [
            10.6691687414169,
            59.4190099523804
          ],
          "available_consumption": 9,
          "available_production": -30,
          "reserved_consumption": 0,
          "kommune": "Moss",
          "fylke": "Østfold"
        },
        {
          "name": "Mesna",
          "coordinates": [
            10.47078775,
            61.11709068
          ],
          "available_consumption": 7,
          "available_production": -40,
          "reserved_consumption": 0,
          "kommune": "Lillehammer",
          "fylke": "Innlandet"
        },
        {
          "name": "Minnesund",
          "coordinates": [
            11.23226,
            60.38877
          ],
          "available_consumption": 4,
          "available_production": -24,
          "reserved_consumption": 0,
          "kommune": "Eidsvoll",
          "fylke": "Akershus"
        },
        {
          "name": "Mjørud",
          "coordinates": [
            11.3296529788208,
            59.4273802621613
          ],
          "available_consumption": 6,
          "available_production": 0,
          "reserved_consumption": 0,
          "kommune": "Rakkestad",
          "fylke": "Østfold"
        },
        {
          "name": "Mjøsstranda",
          "coordinates": [
            10.69036959,
            60.80113566
          ],
          "available_consumption": 11,
          "available_production": -1,
          "reserved_consumption": 0,
          "kommune": "Gjøvik",
          "fylke": "Innlandet"
        },
        {
          "name": "Moelv",
          "coordinates": [
            10.71937909,
            60.93696354
          ],
          "available_consumption": 2,
          "available_production": -40,
          "reserved_consumption": 0,
          "kommune": "Ringsaker",
          "fylke": "Innlandet"
        },
        {
          "name": "Montebello",
          "coordinates": [
            10.6684602794304,
            59.9346740466819
          ],
          "available_consumption": 5,
          "available_production": -80,
          "reserved_consumption": 0,
          "kommune": "Oslo",
          "fylke": "Oslo"
        },
        {
          "name": "Moss",
          "coordinates": [
            10.672444367459,
            59.4364943419897
          ],
          "available_consumption": 14,
          "available_production": -60,
          "reserved_consumption": 0,
          "kommune": "Moss",
          "fylke": "Østfold"
        },
        {
          "name": "Mosseporten",
          "coordinates": [
            10.6930810502624,
            59.440630001126
          ],
          "available_consumption": 12,
          "available_production": -50,
          "reserved_consumption": 0,
          "kommune": "Moss",
          "fylke": "Østfold"
        },
        {
          "name": "Myrvoll",
          "coordinates": [
            10.8009704616546,
            59.7779752549392
          ],
          "available_consumption": 3,
          "available_production": -52,
          "reserved_consumption": 0,
          "kommune": "Nordre Follo",
          "fylke": "Akershus"
        },
        {
          "name": "Navestad",
          "coordinates": [
            11.1503913693809,
            59.2444352302043
          ],
          "available_consumption": 3,
          "available_production": -55,
          "reserved_consumption": 0,
          "kommune": "Sarpsborg",
          "fylke": "Østfold"
        },
        {
          "name": "Nerdrum",
          "coordinates": [
            11.1395615413475,
            59.9225047424393
          ],
          "available_consumption": 5,
          "available_production": -60,
          "reserved_consumption": 0,
          "kommune": "Lillestrøm",
          "fylke": "Akershus"
        },
        {
          "name": "Nes",
          "coordinates": [
            10.84807437,
            60.8185828
          ],
          "available_consumption": 0,
          "available_production": -1,
          "reserved_consumption": 0,
          "kommune": "Ringsaker",
          "fylke": "Innlandet"
        },
        {
          "name": "Nord Odal",
          "coordinates": [
            11.55039151,
            60.40815799
          ],
          "available_consumption": 1,
          "available_production": -1,
          "reserved_consumption": 0,
          "kommune": "Nord-Odal",
          "fylke": "Innlandet"
        },
        {
          "name": "Nordby",
          "coordinates": [
            10.7816512245368,
            59.7210952195015
          ],
          "available_consumption": 23,
          "available_production": -70,
          "reserved_consumption": 0,
          "kommune": "Ås",
          "fylke": "Akershus"
        },
        {
          "name": "Nordbyhagen",
          "coordinates": [
            10.9978829130363,
            59.9337531988738
          ],
          "available_consumption": 26,
          "available_production": -60,
          "reserved_consumption": 0,
          "kommune": "Lørenskog",
          "fylke": "Akershus"
        },
        {
          "name": "Norsenga",
          "coordinates": [
            12.02529955,
            60.18798572
          ],
          "available_consumption": 4,
          "available_production": -1,
          "reserved_consumption": 0,
          "kommune": "Kongsvinger",
          "fylke": "Innlandet"
        },
        {
          "name": "Nystuen",
          "coordinates": [
            10.6891185717582,
            59.8061828754195
          ],
          "available_consumption": 10,
          "available_production": -60,
          "reserved_consumption": 0,
          "kommune": "Nesodden",
          "fylke": "Akershus"
        },
        {
          "name": "Oppsal",
          "coordinates": [
            10.8457447815799,
            59.8988843440588
          ],
          "available_consumption": 8,
          "available_production": -40,
          "reserved_consumption": 0,
          "kommune": "Oslo",
          "fylke": "Oslo"
        },
        {
          "name": "Oredalen",
          "coordinates": [
            10.9356329470824,
            59.2259432870384
          ],
          "available_consumption": 5,
          "available_production": -40,
          "reserved_consumption": 0,
          "kommune": "Fredrikstad",
          "fylke": "Østfold"
        },
        {
          "name": "Os",
          "coordinates": [
            11.16740666,
            62.50491065
          ],
          "available_consumption": 3,
          "available_production": -20,
          "reserved_consumption": 0,
          "kommune": "Os",
          "fylke": "Innlandet"
        },
        {
          "name": "Osa",
          "coordinates": [
            11.51763,
            61.2373
          ],
          "available_consumption": 2,
          "available_production": 0,
          "reserved_consumption": 0,
          "kommune": "Åmot",
          "fylke": "Innlandet"
        },
        {
          "name": "Ottestad",
          "coordinates": [
            11.12949418,
            60.77571379
          ],
          "available_consumption": 1,
          "available_production": -32,
          "reserved_consumption": 0,
          "kommune": "Stange",
          "fylke": "Innlandet"
        },
        {
          "name": "Pilestredet",
          "coordinates": [
            10.7353269507789,
            59.9202773133736
          ],
          "available_consumption": 58,
          "available_production": -120,
          "reserved_consumption": 0,
          "kommune": "Oslo",
          "fylke": "Oslo"
        },
        {
          "name": "Pipervika",
          "coordinates": [
            10.7349679184594,
            59.9097898752889
          ],
          "available_consumption": 44,
          "available_production": -120,
          "reserved_consumption": 0,
          "kommune": "Oslo",
          "fylke": "Oslo"
        },
        {
          "name": "Prestegata",
          "coordinates": [
            10.7375247827338,
            59.9125364903608
          ],
          "available_consumption": 10,
          "available_production": -150,
          "reserved_consumption": 0,
          "kommune": "Oslo",
          "fylke": "Oslo"
        },
        {
          "name": "Prinsdal",
          "coordinates": [
            10.8117382232094,
            59.8403439529441
          ],
          "available_consumption": 15,
          "available_production": -40,
          "reserved_consumption": 0,
          "kommune": "Oslo",
          "fylke": "Oslo"
        },
        {
          "name": "Rasta",
          "coordinates": [
            10.9360143118476,
            59.9270800756832
          ],
          "available_consumption": 13,
          "available_production": -60,
          "reserved_consumption": 0,
          "kommune": "Lørenskog",
          "fylke": "Akershus"
        },
        {
          "name": "Raufoss industripark",
          "coordinates": [
            10.60954558,
            60.72823579
          ],
          "available_consumption": 0,
          "available_production": -20,
          "reserved_consumption": 0,
          "kommune": "Vestre Toten",
          "fylke": "Innlandet"
        },
        {
          "name": "Raufoss",
          "coordinates": [
            10.60706359,
            60.70918788
          ],
          "available_consumption": 1,
          "available_production": -1,
          "reserved_consumption": 0,
          "kommune": "Vestre Toten",
          "fylke": "Innlandet"
        },
        {
          "name": "Rena",
          "coordinates": [
            11.3875312,
            61.13764028
          ],
          "available_consumption": 6,
          "available_production": 0,
          "reserved_consumption": 0,
          "kommune": "Åmot",
          "fylke": "Innlandet"
        },
        {
          "name": "Rendalen",
          "coordinates": [
            11.12388284,
            61.81220739
          ],
          "available_consumption": 0,
          "available_production": -11,
          "reserved_consumption": 0,
          "kommune": "Rendalen",
          "fylke": "Innlandet"
        },
        {
          "name": "Ris",
          "coordinates": [
            10.7043824207974,
            59.9487185353173
          ],
          "available_consumption": 0,
          "available_production": -80,
          "reserved_consumption": 0,
          "kommune": "Oslo",
          "fylke": "Oslo"
        },
        {
          "name": "Rodeløkka",
          "coordinates": [
            10.76920039,
            59.92332597
          ],
          "available_consumption": 11,
          "available_production": -80,
          "reserved_consumption": 0,
          "kommune": "Oslo",
          "fylke": "Oslo"
        },
        {
          "name": "Rommen",
          "coordinates": [
            10.9066362109756,
            59.9610717236057
          ],
          "available_consumption": 17,
          "available_production": -40,
          "reserved_consumption": 0,
          "kommune": "Oslo",
          "fylke": "Oslo"
        },
        {
          "name": "Roppa",
          "coordinates": [
            10.05852318,
            61.24033792
          ],
          "available_consumption": 2,
          "available_production": -3,
          "reserved_consumption": 0,
          "kommune": "Gausdal",
          "fylke": "Innlandet"
        },
        {
          "name": "Rud",
          "coordinates": [
            10.4938174378204,
            59.9107785777788
          ],
          "available_consumption": 0,
          "available_production": -60,
          "reserved_consumption": 3,
          "kommune": "Bærum",
          "fylke": "Akershus"
        },
        {
          "name": "Rudshøgda",
          "coordinates": [
            10.81939831,
            60.90582345
          ],
          "available_consumption": 1,
          "available_production": -20,
          "reserved_consumption": 0,
          "kommune": "Ringsaker",
          "fylke": "Innlandet"
        },
        {
          "name": "Rygge",
          "coordinates": [
            10.6918253915405,
            59.4012516032712
          ],
          "available_consumption": 9,
          "available_production": -60,
          "reserved_consumption": 0,
          "kommune": "Moss",
          "fylke": "Østfold"
        },